{"fullgameschedule":{"lastUpdatedOn":"2017-04-10 8:34:14 AM","gameentry":[{"id":"40273","date":"2017-04-12","time":"7:00PM","awayTeam":{"ID":"9","City":"New York","Name":"Rangers","Abbreviation":"NYR"},"homeTeam":{"ID":"14","City":"Montreal","Name":"Canadiens","Abbreviation":"MTL"},"location":"Bell Centre"},{"id":"40277","date":"2017-04-12","time":"7:00PM","awayTeam":{"ID":"11","City":"Boston","Name":"Bruins","Abbreviation":"BOS"},"homeTeam":{"ID":"13","City":"Ottawa","Name":"Senators","Abbreviation":"OTT"},"location":"Canadian Tire Center"},{"id":"40285","date":"2017-04-12","time":"7:30PM","awayTeam":{"ID":"19","City":"Columbus","Name":"Blue Jackets","Abbreviation":"CBJ"},"homeTeam":{"ID":"10","City":"Pittsburgh","Name":"Penguins","Abbreviation":"PIT"},"location":"Consol Energy Center"},{"id":"40293","date":"2017-04-12","time":"9:30PM","awayTeam":{"ID":"17","City":"St. Louis","Name":"Blues","Abbreviation":"STL"},"homeTeam":{"ID":"25","City":"Minnesota","Name":"Wild","Abbreviation":"MIN"},"location":"Xcel Energy Center"},{"id":"40301","date":"2017-04-12","time":"10:00PM","awayTeam":{"ID":"26","City":"San Jose","Name":"Sharks","Abbreviation":"SJS"},"homeTeam":{"ID":"24","City":"Edmonton","Name":"Oilers","Abbreviation":"EDM"},"location":"Rexall Place"},{"id":"40281","date":"2017-04-13","time":"7:00PM","awayTeam":{"ID":"12","City":"Toronto","Name":"Maple Leafs","Abbreviation":"TOR"},"homeTeam":{"ID":"5","City":"Washington","Name":"Capitals","Abbreviation":"WSH"},"location":"Verizon Center"},{"id":"40289","date":"2017-04-13","time":"8:00PM","awayTeam":{"ID":"18","City":"Nashville","Name":"Predators","Abbreviation":"NSH"},"homeTeam":{"ID":"20","City":"Chicago","Name":"Blackhawks","Abbreviation":"CHI"},"location":"United Center"},{"id":"40297","date":"2017-04-13","time":"10:30PM","awayTeam":{"ID":"23","City":"Calgary","Name":"Flames","Abbreviation":"CGY"},"homeTeam":{"ID":"29","City":"Anaheim","Name":"Ducks","Abbreviation":"ANA"},"location":"Honda Center"},{"id":"40274","date":"2017-04-14","time":"7:00PM","awayTeam":{"ID":"9","City":"New York","Name":"Rangers","Abbreviation":"NYR"},"homeTeam":{"ID":"14","City":"Montreal","Name":"Canadiens","Abbreviation":"MTL"},"location":"Bell Centre"},{"id":"40286","date":"2017-04-14","time":"7:00PM","awayTeam":{"ID":"19","City":"Columbus","Name":"Blue Jackets","Abbreviation":"CBJ"},"homeTeam":{"ID":"10","City":"Pittsburgh","Name":"Penguins","Abbreviation":"PIT"},"location":"Consol Energy Center"},{"id":"40294","date":"2017-04-14","time":"8:00PM","awayTeam":{"ID":"17","City":"St. Louis","Name":"Blues","Abbreviation":"STL"},"homeTeam":{"ID":"25","City":"Minnesota","Name":"Wild","Abbreviation":"MIN"},"location":"Xcel Energy Center"},{"id":"40302","date":"2017-04-14","time":"10:30PM","awayTeam":{"ID":"26","City":"San Jose","Name":"Sharks","Abbreviation":"SJS"},"homeTeam":{"ID":"24","City":"Edmonton","Name":"Oilers","Abbreviation":"EDM"},"location":"Rexall Place"},{"id":"40282","date":"2017-04-15","time":"7:00PM","awayTeam":{"ID":"12","City":"Toronto","Name":"Maple Leafs","Abbreviation":"TOR"},"homeTeam":{"ID":"5","City":"Washington","Name":"Capitals","Abbreviation":"WSH"},"location":"Verizon Center"},{"id":"40278","date":"2017-04-15","time":"7:00PM","awayTeam":{"ID":"11","City":"Boston","Name":"Bruins","Abbreviation":"BOS"},"homeTeam":{"ID":"13","City":"Ottawa","Name":"Senators","Abbreviation":"OTT"},"location":"Canadian Tire Center"},{"id":"40290","date":"2017-04-15","time":"8:00PM","awayTeam":{"ID":"18","City":"Nashville","Name":"Predators","Abbreviation":"NSH"},"homeTeam":{"ID":"20","City":"Chicago","Name":"Blackhawks","Abbreviation":"CHI"},"location":"United Center"},{"id":"40298","date":"2017-04-15","time":"10:30PM","awayTeam":{"ID":"23","City":"Calgary","Name":"Flames","Abbreviation":"CGY"},"homeTeam":{"ID":"29","City":"Anaheim","Name":"Ducks","Abbreviation":"ANA"},"location":"Honda Center"},{"id":"40295","date":"2017-04-16","time":"3:00PM","awayTeam":{"ID":"25","City":"Minnesota","Name":"Wild","Abbreviation":"MIN"},"homeTeam":{"ID":"17","City":"St. Louis","Name":"Blues","Abbreviation":"STL"},"location":"Scottrade Center"},{"id":"40287","date":"2017-04-16","time":"6:00PM","awayTeam":{"ID":"10","City":"Pittsburgh","Name":"Penguins","Abbreviation":"PIT"},"homeTeam":{"ID":"19","City":"Columbus","Name":"Blue Jackets","Abbreviation":"CBJ"},"location":"Nationwide Arena"},{"id":"40275","date":"2017-04-16","time":"7:00PM","awayTeam":{"ID":"14","City":"Montreal","Name":"Canadiens","Abbreviation":"MTL"},"homeTeam":{"ID":"9","City":"New York","Name":"Rangers","Abbreviation":"NYR"},"location":"Madison Square Gardens"},{"id":"40303","date":"2017-04-16","time":"10:00PM","awayTeam":{"ID":"24","City":"Edmonton","Name":"Oilers","Abbreviation":"EDM"},"homeTeam":{"ID":"26","City":"San Jose","Name":"Sharks","Abbreviation":"SJS"},"location":"SAP Center"},{"id":"40283","date":"2017-04-17","time":"6:00PM","awayTeam":{"ID":"5","City":"Washington","Name":"Capitals","Abbreviation":"WSH"},"homeTeam":{"ID":"12","City":"Toronto","Name":"Maple Leafs","Abbreviation":"TOR"},"location":"Air Canada Center"},{"id":"40279","date":"2017-04-17","time":"7:00PM","awayTeam":{"ID":"13","City":"Ottawa","Name":"Senators","Abbreviation":"OTT"},"homeTeam":{"ID":"11","City":"Boston","Name":"Bruins","Abbreviation":"BOS"},"location":"TD Garden"},{"id":"40291","date":"2017-04-17","time":"9:30PM","awayTeam":{"ID":"20","City":"Chicago","Name":"Blackhawks","Abbreviation":"CHI"},"homeTeam":{"ID":"18","City":"Nashville","Name":"Predators","Abbreviation":"NSH"},"location":"Bridgestone Arena"},{"id":"40299","date":"2017-04-17","time":"10:00PM","awayTeam":{"ID":"29","City":"Anaheim","Name":"Ducks","Abbreviation":"ANA"},"homeTeam":{"ID":"23","City":"Calgary","Name":"Flames","Abbreviation":"CGY"},"location":"Scotiabank Saddledome"},{"id":"40276","date":"2017-04-18","time":"7:00PM","awayTeam":{"ID":"14","City":"Montreal","Name":"Canadiens","Abbreviation":"MTL"},"homeTeam":{"ID":"9","City":"New York","Name":"Rangers","Abbreviation":"NYR"},"location":"Madison Square Gardens"},{"id":"40288","date":"2017-04-18","time":"7:30PM","awayTeam":{"ID":"10","City":"Pittsburgh","Name":"Penguins","Abbreviation":"PIT"},"homeTeam":{"ID":"19","City":"Columbus","Name":"Blue Jackets","Abbreviation":"CBJ"},"location":"Nationwide Arena"},{"id":"40304","date":"2017-04-18","time":"10:00PM","awayTeam":{"ID":"24","City":"Edmonton","Name":"Oilers","Abbreviation":"EDM"},"homeTeam":{"ID":"26","City":"San Jose","Name":"Sharks","Abbreviation":"SJS"},"location":"SAP Center"},{"id":"40280","date":"2017-04-19","time":"7:00PM","awayTeam":{"ID":"13","City":"Ottawa","Name":"Senators","Abbreviation":"OTT"},"homeTeam":{"ID":"11","City":"Boston","Name":"Bruins","Abbreviation":"BOS"},"location":"TD Garden"},{"id":"40284","date":"2017-04-19","time":"7:00PM","awayTeam":{"ID":"5","City":"Washington","Name":"Capitals","Abbreviation":"WSH"},"homeTeam":{"ID":"12","City":"Toronto","Name":"Maple Leafs","Abbreviation":"TOR"},"location":"Air Canada Center"},{"id":"40296","date":"2017-04-19","time":"9:30PM","awayTeam":{"ID":"25","City":"Minnesota","Name":"Wild","Abbreviation":"MIN"},"homeTeam":{"ID":"17","City":"St. Louis","Name":"Blues","Abbreviation":"STL"},"location":"Scottrade Center"},{"id":"40300","date":"2017-04-19","time":"10:00PM","awayTeam":{"ID":"29","City":"Anaheim","Name":"Ducks","Abbreviation":"ANA"},"homeTeam":{"ID":"23","City":"Calgary","Name":"Flames","Abbreviation":"CGY"},"location":"Scotiabank Saddledome"},{"id":"40292","date":"2017-04-20","time":"8:00PM","awayTeam":{"ID":"20","City":"Chicago","Name":"Blackhawks","Abbreviation":"CHI"},"homeTeam":{"ID":"18","City":"Nashville","Name":"Predators","Abbreviation":"NSH"},"location":"Bridgestone Arena"}]}}